[
  {
    "id": "167",
    "jobOpeningName": "Talent Community @ Giatec",
    "departmentId": null,
    "departmentLabel": null,
    "employmentStatusLabel": "Full-Time",
    "location": {
      "city": "Ottawa",
      "state": "Ontario"
    },
    "atsLocation": {
      "country": null,
      "state": null,
      "province": null,
      "city": null
    },
    "isRemote": null,
    "locationType": "2",
    "url": "https://giatecscientific.bamboohr.com/career/careers/167"
  },
  {
    "id": "196",
    "jobOpeningName": "Student Talent Community @ Giatec",
    "departmentId": null,
    "departmentLabel": null,
    "employmentStatusLabel": "Part-time Co-op",
    "location": {
      "city": "Ottawa",
      "state": "Ontario"
    },
    "atsLocation": {
      "country": null,
      "state": null,
      "province": null,
      "city": null
    },
    "isRemote": null,
    "locationType": "2",
    "url": "https://giatecscientific.bamboohr.com/career/careers/196"
  },
  {
    "id": "275",
    "jobOpeningName": "AI & Automation Intern (Data Science / Software / Engineering)",
    "departmentId": "18811",
    "departmentLabel": "Software Development - SmartMix",
    "employmentStatusLabel": "Intern",
    "location": {
      "city": "Ottawa",
      "state": "Ontario"
    },
    "atsLocation": {
      "country": "Canada",
      "state": "Ontario",
      "province": null,
      "city": "Ottawa"
    },
    "isRemote": null,
    "locationType": "2",
    "url": "https://giatecscientific.bamboohr.com/career/careers/275"
  },
  {
    "id": "276",
    "jobOpeningName": "Business Development Representative",
    "departmentId": "18813",
    "departmentLabel": "Sales & Success",
    "employmentStatusLabel": "Full-Time",
    "location": {
      "city": "Ottawa",
      "state": "Ontario"
    },
    "atsLocation": {
      "country": null,
      "state": null,
      "province": null,
      "city": null
    },
    "isRemote": null,
    "locationType": "2",
    "url": "https://giatecscientific.bamboohr.com/career/careers/276"
  },
  {
    "id": "277",
    "jobOpeningName": "Senior Accountant",
    "departmentId": "18446",
    "departmentLabel": "Finance & Operations",
    "employmentStatusLabel": "Full-Time",
    "location": {
      "city": "Ottawa",
      "state": "Ontario"
    },
    "atsLocation": {
      "country": null,
      "state": null,
      "province": null,
      "city": null
    },
    "isRemote": null,
    "locationType": "2",
    "url": "https://giatecscientific.bamboohr.com/career/careers/277"
  },
  {
    "id": "630",
    "jobOpeningName": "Solutions Engineer",
    "departmentId": "18676",
    "departmentLabel": "Sales Engineers",
    "employmentStatusLabel": "Full-Time",
    "location": {
      "city": "Paris",
      "state": "France"
    },
    "atsLocation": {
      "country": null,
      "state": null,
      "province": null,
      "city": null
    },
    "isRemote": null,
    "locationType": "2",
    "url": "https://solace.bamboohr.com/career/careers/630"
  },
  {
    "id": "658",
    "jobOpeningName": "UX Designer",
    "departmentId": "18550",
    "departmentLabel": "R&D",
    "employmentStatusLabel": "Full-Time",
    "location": {
      "city": "Ottawa",
      "state": "Ontario"
    },
    "atsLocation": {
      "country": null,
      "state": null,
      "province": null,
      "city": null
    },
    "isRemote": null,
    "locationType": "2",
    "url": "https://solace.bamboohr.com/career/careers/658"
  },
  {
    "id": "664",
    "jobOpeningName": "Director of Sales",
    "departmentId": "18617",
    "departmentLabel": "Sales",
    "employmentStatusLabel": "Full-Time",
    "location": {
      "city": "Seattle",
      "state": "Washington"
    },
    "atsLocation": {
      "country": null,
      "state": null,
      "province": null,
      "city": null
    },
    "isRemote": null,
    "locationType": "2",
    "url": "https://solace.bamboohr.com/career/careers/664"
  },
  {
    "id": "666",
    "jobOpeningName": "Customer Technical Trainer",
    "departmentId": "18762",
    "departmentLabel": "Professional Services",
    "employmentStatusLabel": "Full-Time",
    "location": {
      "city": null,
      "state": null
    },
    "atsLocation": {
      "country": "United Kingdom",
      "state": "London, City of",
      "province": null,
      "city": "London"
    },
    "isRemote": null,
    "locationType": "1",
    "url": "https://solace.bamboohr.com/career/careers/666"
  },
  {
    "id": "667",
    "jobOpeningName": "Customer Success Manager - AEM (Americas)",
    "departmentId": "18562",
    "departmentLabel": "Support",
    "employmentStatusLabel": "Full-Time",
    "location": {
      "city": null,
      "state": null
    },
    "atsLocation": {
      "country": "United States",
      "state": "Georgia",
      "province": null,
      "city": "Atlanta"
    },
    "isRemote": null,
    "locationType": "1",
    "url": "https://solace.bamboohr.com/career/careers/667"
  },
  {
    "id": "669",
    "jobOpeningName": "Solution Support Engineer",
    "departmentId": "18562",
    "departmentLabel": "Support",
    "employmentStatusLabel": "Full-Time",
    "location": {
      "city": "Bangalore",
      "state": "Karnataka"
    },
    "atsLocation": {
      "country": null,
      "state": null,
      "province": null,
      "city": null
    },
    "isRemote": null,
    "locationType": "2",
    "url": "https://solace.bamboohr.com/career/careers/669"
  },
  {
    "id": "673",
    "jobOpeningName": "Director of Sales - Capital Markets",
    "departmentId": "18617",
    "departmentLabel": "Sales",
    "employmentStatusLabel": "Full-Time",
    "location": {
      "city": "London",
      "state": "London, City of"
    },
    "atsLocation": {
      "country": null,
      "state": null,
      "province": null,
      "city": null
    },
    "isRemote": null,
    "locationType": "2",
    "url": "https://solace.bamboohr.com/career/careers/673"
  },
  {
    "id": "674",
    "jobOpeningName": "Director of Sales",
    "departmentId": "18617",
    "departmentLabel": "Sales",
    "employmentStatusLabel": "Full-Time",
    "location": {
      "city": "Germany",
      "state": "Germany"
    },
    "atsLocation": {
      "country": null,
      "state": null,
      "province": null,
      "city": null
    },
    "isRemote": null,
    "locationType": "2",
    "url": "https://solace.bamboohr.com/career/careers/674"
  },
  {
    "id": "675",
    "jobOpeningName": "Director of Sales - Capital Markets",
    "departmentId": "18617",
    "departmentLabel": "Sales",
    "employmentStatusLabel": "Full-Time",
    "location": {
      "city": "New York ",
      "state": "New York"
    },
    "atsLocation": {
      "country": null,
      "state": null,
      "province": null,
      "city": null
    },
    "isRemote": null,
    "locationType": "2",
    "url": "https://solace.bamboohr.com/career/careers/675"
  },
  {
    "id": "678",
    "jobOpeningName": "Cloud\u202fSite Reliability\u202fEngineer",
    "departmentId": "18562",
    "departmentLabel": "Support",
    "employmentStatusLabel": "Full-Time",
    "location": {
      "city": "Ottawa",
      "state": "Ontario"
    },
    "atsLocation": {
      "country": "Canada",
      "state": "Ontario",
      "province": null,
      "city": "Ottawa"
    },
    "isRemote": null,
    "locationType": "2",
    "url": "https://solace.bamboohr.com/career/careers/678"
  },
  {
    "id": "680",
    "jobOpeningName": "Principal Software Developer - AI Integration",
    "departmentId": "18550",
    "departmentLabel": "R&D",
    "employmentStatusLabel": "Full-Time",
    "location": {
      "city": "Ottawa",
      "state": "Ontario"
    },
    "atsLocation": {
      "country": null,
      "state": null,
      "province": null,
      "city": null
    },
    "isRemote": null,
    "locationType": "2",
    "url": "https://solace.bamboohr.com/career/careers/680"
  },
  {
    "id": "681",
    "jobOpeningName": "Director of Sales",
    "departmentId": "18617",
    "departmentLabel": "Sales",
    "employmentStatusLabel": "Full-Time",
    "location": {
      "city": "London",
      "state": "London, City of"
    },
    "atsLocation": {
      "country": null,
      "state": null,
      "province": null,
      "city": null
    },
    "isRemote": null,
    "locationType": "2",
    "url": "https://solace.bamboohr.com/career/careers/681"
  },
  {
    "id": "682",
    "jobOpeningName": "Solutions Engineer",
    "departmentId": "18676",
    "departmentLabel": "Sales Engineers",
    "employmentStatusLabel": "Full-Time",
    "location": {
      "city": "Remote",
      "state": "California"
    },
    "atsLocation": {
      "country": "United States",
      "state": "California",
      "province": null,
      "city": "Remote"
    },
    "isRemote": null,
    "locationType": "2",
    "url": "https://solace.bamboohr.com/career/careers/682"
  },
  {
    "id": "685",
    "jobOpeningName": "Solutions Engineer, Capital Markets/FSI",
    "departmentId": "18676",
    "departmentLabel": "Sales Engineers",
    "employmentStatusLabel": "Full-Time",
    "location": {
      "city": "New York ",
      "state": "New York"
    },
    "atsLocation": {
      "country": null,
      "state": null,
      "province": null,
      "city": null
    },
    "isRemote": null,
    "locationType": "2",
    "url": "https://solace.bamboohr.com/career/careers/685"
  },
  {
    "id": "686",
    "jobOpeningName": "Solutions Engineer, Capital Markets/FSI",
    "departmentId": "18676",
    "departmentLabel": "Sales Engineers",
    "employmentStatusLabel": "Full-Time",
    "location": {
      "city": "London",
      "state": "London, City of"
    },
    "atsLocation": {
      "country": null,
      "state": null,
      "province": null,
      "city": null
    },
    "isRemote": null,
    "locationType": "2",
    "url": "https://solace.bamboohr.com/career/careers/686"
  },
  {
    "id": "687",
    "jobOpeningName": "Software Developer",
    "departmentId": "18550",
    "departmentLabel": "R&D",
    "employmentStatusLabel": "Full-Time",
    "location": {
      "city": "Ottawa",
      "state": "Ontario"
    },
    "atsLocation": {
      "country": null,
      "state": null,
      "province": null,
      "city": null
    },
    "isRemote": null,
    "locationType": "2",
    "url": "https://solace.bamboohr.com/career/careers/687"
  },
  {
    "id": "689",
    "jobOpeningName": "Senior Software Developer (Frontend)",
    "departmentId": "18550",
    "departmentLabel": "R&D",
    "employmentStatusLabel": "Full-Time",
    "location": {
      "city": "Ottawa",
      "state": "Ontario"
    },
    "atsLocation": {
      "country": null,
      "state": null,
      "province": null,
      "city": null
    },
    "isRemote": null,
    "locationType": "2",
    "url": "https://solace.bamboohr.com/career/careers/689"
  },
  {
    "id": "690",
    "jobOpeningName": "Sales Development Representative (SDR)",
    "departmentId": "18617",
    "departmentLabel": "Sales",
    "employmentStatusLabel": "Full-Time",
    "location": {
      "city": "New York ",
      "state": "New York"
    },
    "atsLocation": {
      "country": null,
      "state": null,
      "province": null,
      "city": null
    },
    "isRemote": null,
    "locationType": "2",
    "url": "https://solace.bamboohr.com/career/careers/690"
  },
  {
    "id": "692",
    "jobOpeningName": "Solutions Engineer",
    "departmentId": "18676",
    "departmentLabel": "Sales Engineers",
    "employmentStatusLabel": "Full-Time",
    "location": {
      "city": "Chicago",
      "state": "Illinois"
    },
    "atsLocation": {
      "country": null,
      "state": null,
      "province": null,
      "city": null
    },
    "isRemote": null,
    "locationType": "2",
    "url": "https://solace.bamboohr.com/career/careers/692"
  },
  {
    "id": "693",
    "jobOpeningName": "AI Solutions Architect(Pre-Sales) - Remote, US",
    "departmentId": "18676",
    "departmentLabel": "Sales Engineers",
    "employmentStatusLabel": "Full-Time",
    "location": {
      "city": null,
      "state": null
    },
    "atsLocation": {
      "country": "United States",
      "state": "New York",
      "province": null,
      "city": "New York"
    },
    "isRemote": null,
    "locationType": "1",
    "url": "https://solace.bamboohr.com/career/careers/693"
  },
  {
    "id": "695",
    "jobOpeningName": "AI Solutions Architect",
    "departmentId": "18676",
    "departmentLabel": "Sales Engineers",
    "employmentStatusLabel": "Full-Time",
    "location": {
      "city": "London",
      "state": "London, City of"
    },
    "atsLocation": {
      "country": null,
      "state": null,
      "province": null,
      "city": null
    },
    "isRemote": null,
    "locationType": "2",
    "url": "https://solace.bamboohr.com/career/careers/695"
  },
  {
    "id": "697",
    "jobOpeningName": "AI Solutions Architect",
    "departmentId": "18676",
    "departmentLabel": "Sales Engineers",
    "employmentStatusLabel": "Full-Time",
    "location": {
      "city": null,
      "state": null
    },
    "atsLocation": {
      "country": null,
      "state": null,
      "province": null,
      "city": null
    },
    "isRemote": null,
    "locationType": "1",
    "url": "https://solace.bamboohr.com/career/careers/697"
  },
  {
    "id": "699",
    "jobOpeningName": "Sales Director",
    "departmentId": "18617",
    "departmentLabel": "Sales",
    "employmentStatusLabel": "Full-Time",
    "location": {
      "city": "Germany",
      "state": "Germany"
    },
    "atsLocation": {
      "country": null,
      "state": null,
      "province": null,
      "city": null
    },
    "isRemote": null,
    "locationType": "2",
    "url": "https://solace.bamboohr.com/career/careers/699"
  },
  {
    "id": "701",
    "jobOpeningName": "Director of Sales - Benelux",
    "departmentId": "18617",
    "departmentLabel": "Sales",
    "employmentStatusLabel": "Full-Time",
    "location": {
      "city": null,
      "state": null
    },
    "atsLocation": {
      "country": null,
      "state": null,
      "province": null,
      "city": null
    },
    "isRemote": null,
    "locationType": "1",
    "url": "https://solace.bamboohr.com/career/careers/701"
  },
  {
    "id": "702",
    "jobOpeningName": "Solutions Engineer",
    "departmentId": "18676",
    "departmentLabel": "Sales Engineers",
    "employmentStatusLabel": "Full-Time",
    "location": {
      "city": "Dallas",
      "state": "Texas"
    },
    "atsLocation": {
      "country": "United States",
      "state": "Texas",
      "province": null,
      "city": "Dallas"
    },
    "isRemote": null,
    "locationType": "2",
    "url": "https://solace.bamboohr.com/career/careers/702"
  },
  {
    "id": "703",
    "jobOpeningName": "Technical Product Manager ",
    "departmentId": "18550",
    "departmentLabel": "R&D",
    "employmentStatusLabel": "Full-Time",
    "location": {
      "city": "Ottawa",
      "state": "Ontario"
    },
    "atsLocation": {
      "country": null,
      "state": null,
      "province": null,
      "city": null
    },
    "isRemote": null,
    "locationType": "2",
    "url": "https://solace.bamboohr.com/career/careers/703"
  },
  {
    "id": "704",
    "jobOpeningName": "Solutions Engineer",
    "departmentId": "18676",
    "departmentLabel": "Sales Engineers",
    "employmentStatusLabel": "Full-Time",
    "location": {
      "city": "Jakarta",
      "state": "Jakarta"
    },
    "atsLocation": {
      "country": null,
      "state": null,
      "province": null,
      "city": null
    },
    "isRemote": null,
    "locationType": "2",
    "url": "https://solace.bamboohr.com/career/careers/704"
  },
  {
    "id": "705",
    "jobOpeningName": "Solution Support Engineer",
    "departmentId": "18562",
    "departmentLabel": "Support",
    "employmentStatusLabel": "Full-Time",
    "location": {
      "city": "Singapore ",
      "state": "Singapore"
    },
    "atsLocation": {
      "country": null,
      "state": null,
      "province": null,
      "city": null
    },
    "isRemote": null,
    "locationType": "2",
    "url": "https://solace.bamboohr.com/career/careers/705"
  },
  {
    "id": "33",
    "jobOpeningName": "Sales Specialist",
    "departmentId": "18228",
    "departmentLabel": "Sales-Canadian",
    "employmentStatusLabel": "Full time",
    "location": {
      "city": "Ottawa",
      "state": "Ontario"
    },
    "atsLocation": {
      "country": "Canada",
      "state": "Ontario",
      "province": null,
      "city": "Ottawa"
    },
    "isRemote": null,
    "locationType": "2",
    "url": "https://truecontext.bamboohr.com/career/careers/33"
  },
  {
    "id": "34",
    "jobOpeningName": "Growth Web Developer",
    "departmentId": "18238",
    "departmentLabel": "Marketing",
    "employmentStatusLabel": "Full time",
    "location": {
      "city": "Ottawa",
      "state": "Ontario"
    },
    "atsLocation": {
      "country": null,
      "state": null,
      "province": null,
      "city": null
    },
    "isRemote": null,
    "locationType": "2",
    "url": "https://truecontext.bamboohr.com/career/careers/34"
  },
  {
    "id": "110",
    "jobOpeningName": "Software Developer",
    "departmentId": "18243",
    "departmentLabel": "Software Development",
    "employmentStatusLabel": "Full-Time",
    "location": {
      "city": "Kanata",
      "state": "Ontario"
    },
    "atsLocation": {
      "country": null,
      "state": null,
      "province": null,
      "city": null
    },
    "isRemote": null,
    "locationType": "2",
    "url": "https://distillersr.bamboohr.com/career/careers/110"
  },
  {
    "id": "99",
    "jobOpeningName": "Recollective Women in Technology Scholarship",
    "departmentId": null,
    "departmentLabel": null,
    "employmentStatusLabel": "Scholarship",
    "location": {
      "city": "Ottawa",
      "state": "Ontario"
    },
    "atsLocation": {
      "country": null,
      "state": null,
      "province": null,
      "city": null
    },
    "isRemote": null,
    "locationType": "0",
    "url": "https://recollective.bamboohr.com/career/careers/99"
  },
  {
    "title": "AI & Automation Architect  PA2025-R007",
    "externalPath": "https://wd1.myworkdaysite.com/en-US/ssctech/job/Remote---New-York-US/AI---Automation-Architect--PA2025-R007_R36223",
    "locationsText": "Remote - New York, US",
    "postedOn": "Posted Yesterday",
    "bulletFields": [
      "R36223"
    ],
    "id": "R36223",
    "source": "SST"
  },
  {
    "title": "Dealing Administrator",
    "externalPath": "https://wd1.myworkdaysite.com/en-US/ssctech/job/Bangkok-Thailand/Dealing-Administrator_R34300",
    "locationsText": "Bangkok, Thailand",
    "postedOn": "Posted 3 Days Ago",
    "bulletFields": [
      "R34300"
    ],
    "id": "R34300",
    "source": "SST"
  },
  {
    "title": "Java Technical Lead",
    "externalPath": "https://wd1.myworkdaysite.com/en-US/ssctech/job/London-UK/Java-Technical-Lead_R36869",
    "locationsText": "London, UK",
    "postedOn": "Posted 7 Days Ago",
    "bulletFields": [
      "R36869"
    ],
    "id": "R36869",
    "source": "SST"
  },
  {
    "title": "Director Private Equity Fund Accounting",
    "externalPath": "https://wd1.myworkdaysite.com/en-US/ssctech/job/Maharashtra-Navi-Mumbai/Director-Private-Equity-Fund-Accounting_R34986",
    "locationsText": "Maharashtra, Navi Mumbai",
    "postedOn": "Posted 11 Days Ago",
    "bulletFields": [
      "R34986"
    ],
    "id": "R34986",
    "source": "SST"
  },
  {
    "title": "Lead Software Engineer / Dot Net Full Stack Developer",
    "externalPath": "https://wd1.myworkdaysite.com/en-US/ssctech/job/Hyderabad-India---Block-B/Lead-Software-Engineer---Dot-Net-Developer_R29663",
    "locationsText": "3 Locations",
    "postedOn": "Posted 11 Days Ago",
    "bulletFields": [
      "R29663"
    ],
    "id": "R29663",
    "source": "SST"
  },
  {
    "title": "Manager \u2013 Private Markets Implementations and Consulting",
    "externalPath": "https://wd1.myworkdaysite.com/en-US/ssctech/job/Gurgaon-India/Manager---Private-Markets-Implementations-and-Consulting_R36806",
    "locationsText": "2 Locations",
    "postedOn": "Posted 15 Days Ago",
    "bulletFields": [
      "R36806"
    ],
    "id": "R36806",
    "source": "SST"
  },
  {
    "title": "Dealing Administrator",
    "externalPath": "https://wd1.myworkdaysite.com/en-US/ssctech/job/Bangkok-Thailand/Unit-Registrar-Administrator_R34018",
    "locationsText": "Bangkok, Thailand",
    "postedOn": "Posted 17 Days Ago",
    "bulletFields": [
      "R34018"
    ],
    "id": "R34018",
    "source": "SST"
  },
  {
    "title": "PostgreSQL C#.NET Senior Developer - Hyderabad (Immediate Joiners Only)!",
    "externalPath": "https://wd1.myworkdaysite.com/en-US/ssctech/job/Hyderabad-India/Senior-Microservices--C-NET-Developer---Hyderabad--Immediate-Joiners-Only--_R35566",
    "locationsText": "Hyderabad, India",
    "postedOn": "Posted 18 Days Ago",
    "bulletFields": [
      "R35566"
    ],
    "id": "R35566",
    "source": "SST"
  },
  {
    "title": "Senior Angular/ UX/UI Developer - Hyderabad (Immediate Joiners Only)",
    "externalPath": "https://wd1.myworkdaysite.com/en-US/ssctech/job/Hyderabad-India/Angular--UX-UI-Developer---Hyderabad--Immediate-Joiners-Only-_R35565",
    "locationsText": "Hyderabad, India",
    "postedOn": "Posted 18 Days Ago",
    "bulletFields": [
      "R35565"
    ],
    "id": "R35565",
    "source": "SST"
  },
  {
    "title": "Sales Executive Hedge Funds",
    "externalPath": "https://wd1.myworkdaysite.com/en-US/ssctech/job/Boston-MA/Sales-Executive-Hedge-Funds_R29258",
    "locationsText": "4 Locations",
    "postedOn": "Posted 19 Days Ago",
    "bulletFields": [
      "R29258"
    ],
    "id": "R29258",
    "source": "SST"
  },
  {
    "title": "Hiring Investor Services Professionals !",
    "externalPath": "https://wd1.myworkdaysite.com/en-US/ssctech/job/Maharashtra-Navi-Mumbai/Investor-Services---Manager--Associate-Manager_R35078",
    "locationsText": "Maharashtra, Navi Mumbai",
    "postedOn": "Posted 25 Days Ago",
    "bulletFields": [
      "R35078"
    ],
    "id": "R35078",
    "source": "SST"
  },
  {
    "title": "Senior Associate",
    "externalPath": "https://wd1.myworkdaysite.com/en-US/ssctech/job/Mumbai-India/Senior-Associate_R32554-1",
    "locationsText": "Mumbai, India",
    "postedOn": "Posted 27 Days Ago",
    "bulletFields": [
      "R32554"
    ],
    "id": "R32554",
    "source": "SST"
  },
  {
    "title": "Hiring Chartered Accountant Freshers - PUNE",
    "externalPath": "https://wd1.myworkdaysite.com/en-US/ssctech/job/Pune-India/Hiring-Chartered-Accountant-Freshers---PUNE_R35256",
    "locationsText": "Pune, India",
    "postedOn": "Posted 30+ Days Ago",
    "bulletFields": [
      "R35256"
    ],
    "id": "R35256",
    "source": "SST"
  },
  {
    "title": "Manager - Risk based Internal Audits/ Process Audits",
    "externalPath": "https://wd1.myworkdaysite.com/en-US/ssctech/job/Mumbai-India/Manager---Risk-based-Internal-Audits--Process-Audits_R35282",
    "locationsText": "Mumbai, India",
    "postedOn": "Posted 30+ Days Ago",
    "bulletFields": [
      "R35282"
    ],
    "id": "R35282",
    "source": "SST"
  },
  {
    "title": "Solutions Consultant",
    "externalPath": "https://wd1.myworkdaysite.com/en-US/ssctech/job/Remote---Mexico/Solutions-Consultant_R34480",
    "locationsText": "Remote - Mexico",
    "postedOn": "Posted 30+ Days Ago",
    "bulletFields": [
      "R34480"
    ],
    "id": "R34480",
    "source": "SST"
  },
  {
    "title": "Senior Quant Developer",
    "externalPath": "https://wd1.myworkdaysite.com/en-US/ssctech/job/Maharashtra-Navi-Mumbai/Senior-Quant-Developer_R35179",
    "locationsText": "Maharashtra, Navi Mumbai",
    "postedOn": "Posted 30+ Days Ago",
    "bulletFields": [
      "R35179"
    ],
    "id": "R35179",
    "source": "SST"
  },
  {
    "title": "Senior .NET Developer/ Senior Developer at PUNE",
    "externalPath": "https://wd1.myworkdaysite.com/en-US/ssctech/job/Pune-India/Senior-NET-Developer--Senior-Developer-at-PUNE_R36066",
    "locationsText": "Pune, India",
    "postedOn": "Posted 30+ Days Ago",
    "bulletFields": [
      "R36066"
    ],
    "id": "R36066",
    "source": "SST"
  },
  {
    "title": "Investor Services Representative",
    "externalPath": "https://wd1.myworkdaysite.com/en-US/ssctech/job/Kansas-City-MO/Investor-Services-Representative_R37129",
    "locationsText": "Kansas City, MO",
    "postedOn": "Posted Today",
    "bulletFields": [
      "R37129"
    ],
    "id": "R37129",
    "source": "SST"
  },
  {
    "title": "Front End Developer",
    "externalPath": "https://wd1.myworkdaysite.com/en-US/ssctech/job/Bucharest-Romania/Senior-Front-End-Developer_R35622",
    "locationsText": "Bucharest, Romania",
    "postedOn": "Posted Today",
    "bulletFields": [
      "R35622"
    ],
    "id": "R35622",
    "source": "SST"
  },
  {
    "title": "SC3 - PA25DBOQ4BP001",
    "externalPath": "https://wd1.myworkdaysite.com/en-US/ssctech/job/Pune-India/SC3---PA25DBOQ4BP001_R36355",
    "locationsText": "Pune, India",
    "postedOn": "Posted Today",
    "bulletFields": [
      "R36355"
    ],
    "id": "R36355",
    "source": "SST"
  },
  {
    "title": "Senior Quality Engineer, Core Banking and Payments Technology.",
    "externalPath": "https://cibc.wd3.myworkdayjobs.com/en-US/cibc/job/Toronto-ON/Senior-Quality-Engineer--Core-Banking-and-Payments-Technology_2519717",
    "locationsText": "Toronto, ON",
    "postedOn": "Posted Yesterday",
    "bulletFields": [
      "2519717"
    ],
    "id": "2519717",
    "source": "CIBC"
  },
  {
    "title": "Consultant, Application Development (Java)",
    "externalPath": "https://cibc.wd3.myworkdayjobs.com/en-US/cibc/job/Toronto-ON/Consultant--Application-Development--Java-_2519636",
    "locationsText": "Toronto, ON",
    "postedOn": "Posted Yesterday",
    "bulletFields": [
      "2519636"
    ],
    "id": "2519636",
    "source": "CIBC"
  },
  {
    "title": "Sr. Production Support Engineer",
    "externalPath": "https://cibc.wd3.myworkdayjobs.com/en-US/cibc/job/Ontario-VIRTUAL/Sr-Production-Support-Engineer_2512032",
    "locationsText": "Ontario VIRTUAL",
    "postedOn": "Posted Yesterday",
    "bulletFields": [
      "2512032"
    ],
    "id": "2512032",
    "source": "CIBC"
  },
  {
    "title": "Consultant, Trader Voice",
    "externalPath": "https://cibc.wd3.myworkdayjobs.com/en-US/cibc/job/Toronto-ON/Consultant--Telecommunications_2516422",
    "locationsText": "Toronto, ON",
    "postedOn": "Posted Yesterday",
    "bulletFields": [
      "2516422"
    ],
    "id": "2516422",
    "source": "CIBC"
  },
  {
    "title": "Sr. Manager Data Platform Engineering",
    "externalPath": "https://cibc.wd3.myworkdayjobs.com/en-US/cibc/job/Toronto-ON/Sr-Manager-Data-Platform-Engineering_2519899",
    "locationsText": "Toronto, ON",
    "postedOn": "Posted 2 Days Ago",
    "bulletFields": [
      "2519899"
    ],
    "id": "2519899",
    "source": "CIBC"
  },
  {
    "title": "Azure Machine Learning Platform Engineer",
    "externalPath": "https://cibc.wd3.myworkdayjobs.com/en-US/cibc/job/Toronto-ON/Azure-Machine-Learning-Platform-Engineer_2518481",
    "locationsText": "Toronto, ON",
    "postedOn": "Posted 2 Days Ago",
    "bulletFields": [
      "2518481"
    ],
    "id": "2518481",
    "source": "CIBC"
  },
  {
    "title": "Data Security Engineer (12 Months Secondment/Contract)",
    "externalPath": "https://cibc.wd3.myworkdayjobs.com/en-US/cibc/job/Toronto-ON/Data-Security-Engineer--12-Months-Secondment-Contract-_2517370",
    "locationsText": "Toronto, ON",
    "postedOn": "Posted 2 Days Ago",
    "bulletFields": [
      "2517370"
    ],
    "id": "2517370",
    "source": "CIBC"
  },
  {
    "title": "Senior Manager, Data Platform Support & SRE",
    "externalPath": "https://cibc.wd3.myworkdayjobs.com/en-US/cibc/job/Toronto-ON/Senior-Manager--Data-Platform-Support---SRE_2516784-1",
    "locationsText": "Toronto, ON",
    "postedOn": "Posted 2 Days Ago",
    "bulletFields": [
      "2516784"
    ],
    "id": "2516784",
    "source": "CIBC"
  },
  {
    "title": "Senior Technology Architect",
    "externalPath": "https://cibc.wd3.myworkdayjobs.com/en-US/cibc/job/Toronto-ON/Sr-Consultant--Technology-Architecture_2514530",
    "locationsText": "Toronto, ON",
    "postedOn": "Posted 2 Days Ago",
    "bulletFields": [
      "2514530"
    ],
    "id": "2514530",
    "source": "CIBC"
  },
  {
    "title": "Senior Manager, Application Development",
    "externalPath": "https://cibc.wd3.myworkdayjobs.com/en-US/cibc/job/Toronto-ON/Senior-Manager--Application-Development_2512609",
    "locationsText": "Toronto, ON",
    "postedOn": "Posted 6 Days Ago",
    "bulletFields": [
      "2512609"
    ],
    "id": "2512609",
    "source": "CIBC"
  },
  {
    "title": "Quality Engineer",
    "externalPath": "https://cibc.wd3.myworkdayjobs.com/en-US/cibc/job/Toronto-ON/Senior-QA-Analyst_2507848",
    "locationsText": "Toronto, ON",
    "postedOn": "Posted 6 Days Ago",
    "bulletFields": [
      "2507848"
    ],
    "id": "2507848",
    "source": "CIBC"
  },
  {
    "title": "Sr. Consultant, Governance and Audit",
    "externalPath": "https://cibc.wd3.myworkdayjobs.com/en-US/cibc/job/Toronto-ON/Sr-Consultant--Governance---Audit_2427441",
    "locationsText": "Toronto, ON",
    "postedOn": "Posted 6 Days Ago",
    "bulletFields": [
      "2427441"
    ],
    "id": "2427441",
    "source": "CIBC"
  },
  {
    "title": "Intake Analyst, Business Effectiveness",
    "externalPath": "https://cibc.wd3.myworkdayjobs.com/en-US/cibc/job/Toronto-ON/Intake-Analyst--Business-Effectiveness_2518567",
    "locationsText": "Toronto, ON",
    "postedOn": "Posted 6 Days Ago",
    "bulletFields": [
      "2518567"
    ],
    "id": "2518567",
    "source": "CIBC"
  },
  {
    "title": "Application Consultant: Digital Banking (Full Stack \u2013 Microservices, Mobile Native, Web, Cloud native)",
    "externalPath": "https://cibc.wd3.myworkdayjobs.com/en-US/cibc/job/Toronto-ON/Application-Consultant--Digital-Banking--Microservices--Java--Cloud-native-_2427628",
    "locationsText": "Toronto, ON",
    "postedOn": "Posted 7 Days Ago",
    "bulletFields": [
      "2427628"
    ],
    "id": "2427628",
    "source": "CIBC"
  },
  {
    "title": "Sr. Consultant, Application Development",
    "externalPath": "https://cibc.wd3.myworkdayjobs.com/en-US/cibc/job/Toronto-ON/Sr-Consultant--Application-Development_2517347",
    "locationsText": "Toronto, ON",
    "postedOn": "Posted 7 Days Ago",
    "bulletFields": [
      "2517347"
    ],
    "id": "2517347",
    "source": "CIBC"
  },
  {
    "title": "Consultant, Application Development",
    "externalPath": "https://cibc.wd3.myworkdayjobs.com/en-US/cibc/job/Toronto-ON/Consultant--Application-Development_2415397",
    "locationsText": "Toronto, ON",
    "postedOn": "Posted 7 Days Ago",
    "bulletFields": [
      "2415397"
    ],
    "id": "2415397",
    "source": "CIBC"
  },
  {
    "title": "Application Production Support Consultant",
    "externalPath": "https://cibc.wd3.myworkdayjobs.com/en-US/cibc/job/Toronto-ON/Application-Production-Support-Consultant_2508001-1",
    "locationsText": "Toronto, ON",
    "postedOn": "Posted 7 Days Ago",
    "bulletFields": [
      "2508001"
    ],
    "id": "2508001",
    "source": "CIBC"
  },
  {
    "title": "Software Development Engineer in Test (SDET)",
    "externalPath": "https://cibc.wd3.myworkdayjobs.com/en-US/cibc/job/Toronto-ON/Software-Development-Engineer-in-Test--SDET-_2519714-1",
    "locationsText": "Toronto, ON",
    "postedOn": "Posted 7 Days Ago",
    "bulletFields": [
      "2519714"
    ],
    "id": "2519714",
    "source": "CIBC"
  },
  {
    "title": "Senior Manager, Enhancements, Compliance and Reporting",
    "externalPath": "https://cibc.wd3.myworkdayjobs.com/en-US/cibc/job/Toronto-ON/Senior-Manager--Enhancements--Compliance-and-Reporting_2518984-1",
    "locationsText": "Toronto, ON",
    "postedOn": "Posted 7 Days Ago",
    "bulletFields": [
      "2518984"
    ],
    "id": "2518984",
    "source": "CIBC"
  },
  {
    "title": "Senior Consultant, Application Development",
    "externalPath": "https://cibc.wd3.myworkdayjobs.com/en-US/cibc/job/Toronto-ON/Senior-Consultant--Application-Development_2511972",
    "locationsText": "Toronto, ON",
    "postedOn": "Posted 7 Days Ago",
    "bulletFields": [
      "2511972"
    ],
    "id": "2511972",
    "source": "CIBC"
  },
  {
    "title": "Sr./Lead- AI/GenAI Application Developer",
    "externalPath": "https://ciena.wd5.myworkdayjobs.com/en-US/ciena/job/Gurugram/Sr-Lead--AI-GenAI-Application-Developer_R027976-1",
    "locationsText": "Gurugram",
    "postedOn": "Posted 8 Days Ago",
    "bulletFields": [
      "R027976"
    ],
    "id": "R027976",
    "source": "Ciena"
  },
  {
    "title": "Senior QA Engineer - AI Application (AI/ML Verification)",
    "externalPath": "https://ciena.wd5.myworkdayjobs.com/en-US/ciena/job/Gurugram/QA-Engineer--AI-Application_R027969",
    "locationsText": "Gurugram",
    "postedOn": "Posted 30+ Days Ago",
    "bulletFields": [
      "R027969"
    ],
    "id": "R027969",
    "source": "Ciena"
  },
  {
    "title": "Analyst - IT Software Engineer",
    "externalPath": "https://ciena.wd5.myworkdayjobs.com/en-US/ciena/job/Remote--India--Gurugram/Analyst---IT-Software-Engineer_R028534",
    "locationsText": "Remote- India- Gurugram",
    "postedOn": "Posted Today",
    "bulletFields": [
      "R028534"
    ],
    "id": "R028534",
    "source": "Ciena"
  },
  {
    "title": "Data Platform SRE",
    "externalPath": "https://ciena.wd5.myworkdayjobs.com/en-US/ciena/job/Gurugram/Data-Platform-SRE_R028688",
    "locationsText": "2 Locations",
    "postedOn": "Posted Today",
    "bulletFields": [
      "R028688"
    ],
    "id": "R028688",
    "source": "Ciena"
  },
  {
    "title": "Order Management",
    "externalPath": "https://ciena.wd5.myworkdayjobs.com/en-US/ciena/job/Belfast/Order-Management_R028793",
    "locationsText": "Belfast",
    "postedOn": "Posted Today",
    "bulletFields": [
      "R028793"
    ],
    "id": "R028793",
    "source": "Ciena"
  },
  {
    "title": "Analyst, Renewal Services Quoting",
    "externalPath": "https://ciena.wd5.myworkdayjobs.com/en-US/ciena/job/Gurugram/Analyst--Renewal-Services-Quoting_R028738",
    "locationsText": "Gurugram",
    "postedOn": "Posted Today",
    "bulletFields": [
      "R028738"
    ],
    "id": "R028738",
    "source": "Ciena"
  },
  {
    "title": "Associate, Renewal Services Quoting",
    "externalPath": "https://ciena.wd5.myworkdayjobs.com/en-US/ciena/job/Gurugram/Associate--Renewal-Services-Quoting_R028737",
    "locationsText": "Gurugram",
    "postedOn": "Posted Today",
    "bulletFields": [
      "R028737"
    ],
    "id": "R028737",
    "source": "Ciena"
  },
  {
    "title": "Module Lead Engineer - Routing & Switching protocol developer - Control plane",
    "externalPath": "https://ciena.wd5.myworkdayjobs.com/en-US/ciena/job/Gurugram/Lead-Engineer---Routing---Switching-protocol-developer--Chipsets_R026488",
    "locationsText": "Gurugram",
    "postedOn": "Posted Today",
    "bulletFields": [
      "R026488"
    ],
    "id": "R026488",
    "source": "Ciena"
  },
  {
    "title": "CO-OP/Intern: QA Automation Developer",
    "externalPath": "https://ciena.wd5.myworkdayjobs.com/en-US/ciena/job/Ottawa/CO-OP-Intern--QA-Automation-Developer_R028790",
    "locationsText": "Ottawa",
    "postedOn": "Posted Yesterday",
    "bulletFields": [
      "R028790"
    ],
    "id": "R028790",
    "source": "Ciena"
  },
  {
    "title": "Integrated Test Engineer - 2025/2026 New Grads",
    "externalPath": "https://ciena.wd5.myworkdayjobs.com/en-US/ciena/job/Ottawa/Integrated-Test-Engineer---2025-2026-New-Grads_R028646",
    "locationsText": "Ottawa",
    "postedOn": "Posted Yesterday",
    "bulletFields": [
      "R028646"
    ],
    "id": "R028646",
    "source": "Ciena"
  },
  {
    "title": "Modem Hardware & Engineer New Grad",
    "externalPath": "https://ciena.wd5.myworkdayjobs.com/en-US/ciena/job/Ottawa/Modem-Hardware---Engineer-New-Grad_R028721",
    "locationsText": "Ottawa",
    "postedOn": "Posted Yesterday",
    "bulletFields": [
      "R028721"
    ],
    "id": "R028721",
    "source": "Ciena"
  },
  {
    "title": "Software Engineering_Intern",
    "externalPath": "https://ciena.wd5.myworkdayjobs.com/en-US/ciena/job/UK--Edinburgh---19A-Canning-St/Software-Engineering-Intern_R028780",
    "locationsText": "2 Locations",
    "postedOn": "Posted Yesterday",
    "bulletFields": [
      "R028780"
    ],
    "id": "R028780",
    "source": "Ciena"
  },
  {
    "title": "Software Engineering Placement",
    "externalPath": "https://ciena.wd5.myworkdayjobs.com/en-US/ciena/job/UK--Edinburgh---19A-Canning-St/Software-Engineering-Placement_R028779",
    "locationsText": "2 Locations",
    "postedOn": "Posted Yesterday",
    "bulletFields": [
      "R028779"
    ],
    "id": "R028779",
    "source": "Ciena"
  },
  {
    "title": "Associate Network Engineer - New Grad",
    "externalPath": "https://ciena.wd5.myworkdayjobs.com/en-US/ciena/job/Remote-Germany/Network-Engineer--Associate_R028464",
    "locationsText": "2 Locations",
    "postedOn": "Posted Yesterday",
    "bulletFields": [
      "R028464"
    ],
    "id": "R028464",
    "source": "Ciena"
  },
  {
    "title": "Lead \u2013 Supply Chain Business Intelligence",
    "externalPath": "https://ciena.wd5.myworkdayjobs.com/en-US/ciena/job/Belfast/Business-Analytics--Supply-Chain-Data-Services_R028552",
    "locationsText": "4 Locations",
    "postedOn": "Posted Yesterday",
    "bulletFields": [
      "R028552"
    ],
    "id": "R028552",
    "source": "Ciena"
  },
  {
    "title": "Embedded Software Engineer P3",
    "externalPath": "https://ciena.wd5.myworkdayjobs.com/en-US/ciena/job/Ottawa/Embedded-Software-Engineer-P3_R028724",
    "locationsText": "Ottawa",
    "postedOn": "Posted 2 Days Ago",
    "bulletFields": [
      "R028724"
    ],
    "id": "R028724",
    "source": "Ciena"
  },
  {
    "title": "Component Sales Engineer - Asset Recovery",
    "externalPath": "https://ciena.wd5.myworkdayjobs.com/en-US/ciena/job/Remote-Canada/Component-Sales-Engineer---Asset-Recovery_R028549",
    "locationsText": "2 Locations",
    "postedOn": "Posted 2 Days Ago",
    "bulletFields": [
      "R028549"
    ],
    "id": "R028549",
    "source": "Ciena"
  },
  {
    "title": "Logistics Analytics & Optimization Lead",
    "externalPath": "https://ciena.wd5.myworkdayjobs.com/en-US/ciena/job/Belfast/Logistics-Analytics---Optimization-Lead_R028784",
    "locationsText": "Belfast",
    "postedOn": "Posted 2 Days Ago",
    "bulletFields": [
      "R028784"
    ],
    "id": "R028784",
    "source": "Ciena"
  },
  {
    "title": "Optical Test Engineer - Python Automation",
    "externalPath": "https://ciena.wd5.myworkdayjobs.com/en-US/ciena/job/Gurugram/SVT-PV-Engineer-Software-Systems_R028598",
    "locationsText": "Gurugram",
    "postedOn": "Posted 2 Days Ago",
    "bulletFields": [
      "R028598"
    ],
    "id": "R028598",
    "source": "Ciena"
  },
  {
    "title": "Optical Test Engineer - Python Automation",
    "externalPath": "https://ciena.wd5.myworkdayjobs.com/en-US/ciena/job/Gurugram/SVT-PV-Engineer-Software-Systems_R028595-1",
    "locationsText": "Gurugram",
    "postedOn": "Posted 2 Days Ago",
    "bulletFields": [
      "R028595"
    ],
    "id": "R028595",
    "source": "Ciena"
  },
  {
    "id": 151188,
    "type": "careers",
    "title": "Senior Software Engineer II",
    "link": "https://www.surveymonkey.com/careers/7126591-senior-software-engineer-ii/",
    "path": "/careers/7126591-senior-software-engineer-ii/",
    "date": "2025-08-29T12:00:13",
    "date_modified": "2025-08-29T12:00:13",
    "excerpt": "",
    "images": {},
    "featured_image_alt": "Senior Software Engineer II",
    "career_department": [
      {
        "id": 410,
        "slug": "engineering",
        "name": "Engineering",
        "description": "SurveyMonkey products amplify the voices of millions of people around the globe. As an engineering team, we support our large-scale platform and are responsible for that critical feedback data, which allows organizations to better meet the needs of their customers, market, and employees. \r\n\r\nOur team values a passion for engineering, a growth mindset, a love of collaboration, and a general curiosity about how things work. Our goal is to have fun while building products that our customers love. If you want to take your career to the next level and be involved in solving some of the most interesting and biggest challenges in technology today, then come join us!",
        "link": "https://www.surveymonkey.com/careers/dept/engineering/",
        "path": "/careers/dept/engineering/"
      }
    ],
    "career_location": [
      {
        "id": 390,
        "slug": "dublin",
        "name": "Dublin, Ireland",
        "description": "",
        "link": "https://www.surveymonkey.com/careers/office/dublin/",
        "path": "/careers/office/dublin/"
      },
      {
        "id": 411,
        "slug": "global",
        "name": "Global",
        "description": "",
        "link": "https://www.surveymonkey.com/careers/office/global/",
        "path": "/careers/office/global/"
      }
    ],
    "job_location": "",
    "source": "SurveyMonkey"
  },
  {
    "id": 151186,
    "type": "careers",
    "title": "Senior Fullstack Software Engineer I",
    "link": "https://www.surveymonkey.com/careers/7126204-senior-fullstack-software-engineer-i/",
    "path": "/careers/7126204-senior-fullstack-software-engineer-i/",
    "date": "2025-08-29T12:00:12",
    "date_modified": "2025-08-29T12:00:12",
    "excerpt": "",
    "images": {},
    "featured_image_alt": "Senior Fullstack Software Engineer I",
    "career_department": [
      {
        "id": 410,
        "slug": "engineering",
        "name": "Engineering",
        "description": "SurveyMonkey products amplify the voices of millions of people around the globe. As an engineering team, we support our large-scale platform and are responsible for that critical feedback data, which allows organizations to better meet the needs of their customers, market, and employees. \r\n\r\nOur team values a passion for engineering, a growth mindset, a love of collaboration, and a general curiosity about how things work. Our goal is to have fun while building products that our customers love. If you want to take your career to the next level and be involved in solving some of the most interesting and biggest challenges in technology today, then come join us!",
        "link": "https://www.surveymonkey.com/careers/dept/engineering/",
        "path": "/careers/dept/engineering/"
      }
    ],
    "career_location": [
      {
        "id": 411,
        "slug": "global",
        "name": "Global",
        "description": "",
        "link": "https://www.surveymonkey.com/careers/office/global/",
        "path": "/careers/office/global/"
      },
      {
        "id": 404,
        "slug": "us-remote",
        "name": "US - Remote",
        "description": "",
        "link": "https://www.surveymonkey.com/careers/office/us-remote/",
        "path": "/careers/office/us-remote/"
      }
    ],
    "job_location": "",
    "source": "SurveyMonkey"
  },
  {
    "id": 148767,
    "type": "careers",
    "title": "Senior Executive &#038; Administration Assistant",
    "link": "https://www.surveymonkey.com/careers/6944822-senior-executive-administration-assistant/",
    "path": "/careers/6944822-senior-executive-administration-assistant/",
    "date": "2025-07-31T16:00:09",
    "date_modified": "2025-07-31T16:00:09",
    "excerpt": "",
    "images": {},
    "featured_image_alt": "Senior Executive &#038; Administration Assistant",
    "career_department": [
      {
        "id": 410,
        "slug": "engineering",
        "name": "Engineering",
        "description": "SurveyMonkey products amplify the voices of millions of people around the globe. As an engineering team, we support our large-scale platform and are responsible for that critical feedback data, which allows organizations to better meet the needs of their customers, market, and employees. \r\n\r\nOur team values a passion for engineering, a growth mindset, a love of collaboration, and a general curiosity about how things work. Our goal is to have fun while building products that our customers love. If you want to take your career to the next level and be involved in solving some of the most interesting and biggest challenges in technology today, then come join us!",
        "link": "https://www.surveymonkey.com/careers/dept/engineering/",
        "path": "/careers/dept/engineering/"
      }
    ],
    "career_location": [
      {
        "id": 470,
        "slug": "bengaluru",
        "name": "Bengaluru, India",
        "description": "",
        "link": "https://www.surveymonkey.com/careers/office/bengaluru/",
        "path": "/careers/office/bengaluru/"
      },
      {
        "id": 411,
        "slug": "global",
        "name": "Global",
        "description": "",
        "link": "https://www.surveymonkey.com/careers/office/global/",
        "path": "/careers/office/global/"
      }
    ],
    "job_location": "",
    "source": "SurveyMonkey"
  },
  {
    "id": 146972,
    "type": "careers",
    "title": "Senior Cloud Engineer",
    "link": "https://www.surveymonkey.com/careers/7035372-senior-cloud-engineer/",
    "path": "/careers/7035372-senior-cloud-engineer/",
    "date": "2025-07-03T13:00:17",
    "date_modified": "2025-07-03T13:00:17",
    "excerpt": "",
    "images": {},
    "featured_image_alt": "Senior Cloud Engineer",
    "career_department": [
      {
        "id": 410,
        "slug": "engineering",
        "name": "Engineering",
        "description": "SurveyMonkey products amplify the voices of millions of people around the globe. As an engineering team, we support our large-scale platform and are responsible for that critical feedback data, which allows organizations to better meet the needs of their customers, market, and employees. \r\n\r\nOur team values a passion for engineering, a growth mindset, a love of collaboration, and a general curiosity about how things work. Our goal is to have fun while building products that our customers love. If you want to take your career to the next level and be involved in solving some of the most interesting and biggest challenges in technology today, then come join us!",
        "link": "https://www.surveymonkey.com/careers/dept/engineering/",
        "path": "/careers/dept/engineering/"
      }
    ],
    "career_location": [
      {
        "id": 470,
        "slug": "bengaluru",
        "name": "Bengaluru, India",
        "description": "",
        "link": "https://www.surveymonkey.com/careers/office/bengaluru/",
        "path": "/careers/office/bengaluru/"
      },
      {
        "id": 411,
        "slug": "global",
        "name": "Global",
        "description": "",
        "link": "https://www.surveymonkey.com/careers/office/global/",
        "path": "/careers/office/global/"
      }
    ],
    "job_location": "",
    "source": "SurveyMonkey"
  },
  {
    "id": 137944,
    "type": "careers",
    "title": "Senior Fullstack Software Engineer II &#8211; Integrations",
    "link": "https://www.surveymonkey.com/careers/6808396-senior-software-engineer-ii-fullstack-integrations-team/",
    "path": "/careers/6808396-senior-software-engineer-ii-fullstack-integrations-team/",
    "date": "2025-04-23T03:00:39",
    "date_modified": "2025-04-23T03:00:39",
    "excerpt": "",
    "images": {},
    "featured_image_alt": "Senior Fullstack Software Engineer II &#8211; Integrations",
    "career_department": [
      {
        "id": 410,
        "slug": "engineering",
        "name": "Engineering",
        "description": "SurveyMonkey products amplify the voices of millions of people around the globe. As an engineering team, we support our large-scale platform and are responsible for that critical feedback data, which allows organizations to better meet the needs of their customers, market, and employees. \r\n\r\nOur team values a passion for engineering, a growth mindset, a love of collaboration, and a general curiosity about how things work. Our goal is to have fun while building products that our customers love. If you want to take your career to the next level and be involved in solving some of the most interesting and biggest challenges in technology today, then come join us!",
        "link": "https://www.surveymonkey.com/careers/dept/engineering/",
        "path": "/careers/dept/engineering/"
      }
    ],
    "career_location": [
      {
        "id": 470,
        "slug": "bengaluru",
        "name": "Bengaluru, India",
        "description": "",
        "link": "https://www.surveymonkey.com/careers/office/bengaluru/",
        "path": "/careers/office/bengaluru/"
      },
      {
        "id": 411,
        "slug": "global",
        "name": "Global",
        "description": "",
        "link": "https://www.surveymonkey.com/careers/office/global/",
        "path": "/careers/office/global/"
      }
    ],
    "job_location": "",
    "source": "SurveyMonkey"
  },
  {
    "id": 137942,
    "type": "careers",
    "title": "Senior Backend Software Engineer II &#8211; Integrations",
    "link": "https://www.surveymonkey.com/careers/6808298-senior-software-engineer-ii-backend-integrations-team/",
    "path": "/careers/6808298-senior-software-engineer-ii-backend-integrations-team/",
    "date": "2025-04-23T03:00:36",
    "date_modified": "2025-04-23T03:00:36",
    "excerpt": "",
    "images": {},
    "featured_image_alt": "Senior Backend Software Engineer II &#8211; Integrations",
    "career_department": [
      {
        "id": 410,
        "slug": "engineering",
        "name": "Engineering",
        "description": "SurveyMonkey products amplify the voices of millions of people around the globe. As an engineering team, we support our large-scale platform and are responsible for that critical feedback data, which allows organizations to better meet the needs of their customers, market, and employees. \r\n\r\nOur team values a passion for engineering, a growth mindset, a love of collaboration, and a general curiosity about how things work. Our goal is to have fun while building products that our customers love. If you want to take your career to the next level and be involved in solving some of the most interesting and biggest challenges in technology today, then come join us!",
        "link": "https://www.surveymonkey.com/careers/dept/engineering/",
        "path": "/careers/dept/engineering/"
      }
    ],
    "career_location": [
      {
        "id": 470,
        "slug": "bengaluru",
        "name": "Bengaluru, India",
        "description": "",
        "link": "https://www.surveymonkey.com/careers/office/bengaluru/",
        "path": "/careers/office/bengaluru/"
      },
      {
        "id": 411,
        "slug": "global",
        "name": "Global",
        "description": "",
        "link": "https://www.surveymonkey.com/careers/office/global/",
        "path": "/careers/office/global/"
      }
    ],
    "job_location": "",
    "source": "SurveyMonkey"
  },
  {
    "id": 137715,
    "type": "careers",
    "title": "Senior Software Engineer II &#8211; MRX Audience",
    "link": "https://www.surveymonkey.com/careers/6784894-senior-software-engineer-ii-mrx-audience/",
    "path": "/careers/6784894-senior-software-engineer-ii-mrx-audience/",
    "date": "2025-04-16T05:00:46",
    "date_modified": "2025-04-16T05:00:46",
    "excerpt": "",
    "images": {},
    "featured_image_alt": "Senior Software Engineer II &#8211; MRX Audience",
    "career_department": [
      {
        "id": 410,
        "slug": "engineering",
        "name": "Engineering",
        "description": "SurveyMonkey products amplify the voices of millions of people around the globe. As an engineering team, we support our large-scale platform and are responsible for that critical feedback data, which allows organizations to better meet the needs of their customers, market, and employees. \r\n\r\nOur team values a passion for engineering, a growth mindset, a love of collaboration, and a general curiosity about how things work. Our goal is to have fun while building products that our customers love. If you want to take your career to the next level and be involved in solving some of the most interesting and biggest challenges in technology today, then come join us!",
        "link": "https://www.surveymonkey.com/careers/dept/engineering/",
        "path": "/careers/dept/engineering/"
      }
    ],
    "career_location": [
      {
        "id": 470,
        "slug": "bengaluru",
        "name": "Bengaluru, India",
        "description": "",
        "link": "https://www.surveymonkey.com/careers/office/bengaluru/",
        "path": "/careers/office/bengaluru/"
      },
      {
        "id": 411,
        "slug": "global",
        "name": "Global",
        "description": "",
        "link": "https://www.surveymonkey.com/careers/office/global/",
        "path": "/careers/office/global/"
      }
    ],
    "job_location": "",
    "source": "SurveyMonkey"
  },
  {
    "id": 137525,
    "type": "careers",
    "title": "Senior Cloud Solution Engineer",
    "link": "https://www.surveymonkey.com/careers/6803106-staff-site-reliability-engineer-cloud-solutions-team/",
    "path": "/careers/6803106-staff-site-reliability-engineer-cloud-solutions-team/",
    "date": "2025-04-14T10:00:50",
    "date_modified": "2025-04-14T10:00:50",
    "excerpt": "",
    "images": {},
    "featured_image_alt": "Senior Cloud Solution Engineer",
    "career_department": [
      {
        "id": 410,
        "slug": "engineering",
        "name": "Engineering",
        "description": "SurveyMonkey products amplify the voices of millions of people around the globe. As an engineering team, we support our large-scale platform and are responsible for that critical feedback data, which allows organizations to better meet the needs of their customers, market, and employees. \r\n\r\nOur team values a passion for engineering, a growth mindset, a love of collaboration, and a general curiosity about how things work. Our goal is to have fun while building products that our customers love. If you want to take your career to the next level and be involved in solving some of the most interesting and biggest challenges in technology today, then come join us!",
        "link": "https://www.surveymonkey.com/careers/dept/engineering/",
        "path": "/careers/dept/engineering/"
      }
    ],
    "career_location": [
      {
        "id": 470,
        "slug": "bengaluru",
        "name": "Bengaluru, India",
        "description": "",
        "link": "https://www.surveymonkey.com/careers/office/bengaluru/",
        "path": "/careers/office/bengaluru/"
      },
      {
        "id": 411,
        "slug": "global",
        "name": "Global",
        "description": "",
        "link": "https://www.surveymonkey.com/careers/office/global/",
        "path": "/careers/office/global/"
      }
    ],
    "job_location": "",
    "source": "SurveyMonkey"
  },
  {
    "id": 137226,
    "type": "careers",
    "title": "Senior Software Engineer II &#8211; Wufoo",
    "link": "https://www.surveymonkey.com/careers/6784357-senior-software-engineer-ii-backend-sm-apply-wufoo-teams/",
    "path": "/careers/6784357-senior-software-engineer-ii-backend-sm-apply-wufoo-teams/",
    "date": "2025-04-10T03:00:35",
    "date_modified": "2025-04-10T03:00:35",
    "excerpt": "",
    "images": {},
    "featured_image_alt": "Senior Software Engineer II &#8211; Wufoo",
    "career_department": [
      {
        "id": 410,
        "slug": "engineering",
        "name": "Engineering",
        "description": "SurveyMonkey products amplify the voices of millions of people around the globe. As an engineering team, we support our large-scale platform and are responsible for that critical feedback data, which allows organizations to better meet the needs of their customers, market, and employees. \r\n\r\nOur team values a passion for engineering, a growth mindset, a love of collaboration, and a general curiosity about how things work. Our goal is to have fun while building products that our customers love. If you want to take your career to the next level and be involved in solving some of the most interesting and biggest challenges in technology today, then come join us!",
        "link": "https://www.surveymonkey.com/careers/dept/engineering/",
        "path": "/careers/dept/engineering/"
      }
    ],
    "career_location": [
      {
        "id": 470,
        "slug": "bengaluru",
        "name": "Bengaluru, India",
        "description": "",
        "link": "https://www.surveymonkey.com/careers/office/bengaluru/",
        "path": "/careers/office/bengaluru/"
      },
      {
        "id": 411,
        "slug": "global",
        "name": "Global",
        "description": "",
        "link": "https://www.surveymonkey.com/careers/office/global/",
        "path": "/careers/office/global/"
      }
    ],
    "job_location": "",
    "source": "SurveyMonkey"
  },
  {
    "id": 135048,
    "type": "careers",
    "title": "Senior Backend Software Engineer II &#8211; SurveyMonkey Apply",
    "link": "https://www.surveymonkey.com/careers/6579735-senior-software-engineer-ii-backend-sm-apply-wufoo-teams/",
    "path": "/careers/6579735-senior-software-engineer-ii-backend-sm-apply-wufoo-teams/",
    "date": "2025-03-11T03:00:43",
    "date_modified": "2025-03-11T03:00:43",
    "excerpt": "",
    "images": {},
    "featured_image_alt": "Senior Backend Software Engineer II &#8211; SurveyMonkey Apply",
    "career_department": [
      {
        "id": 410,
        "slug": "engineering",
        "name": "Engineering",
        "description": "SurveyMonkey products amplify the voices of millions of people around the globe. As an engineering team, we support our large-scale platform and are responsible for that critical feedback data, which allows organizations to better meet the needs of their customers, market, and employees. \r\n\r\nOur team values a passion for engineering, a growth mindset, a love of collaboration, and a general curiosity about how things work. Our goal is to have fun while building products that our customers love. If you want to take your career to the next level and be involved in solving some of the most interesting and biggest challenges in technology today, then come join us!",
        "link": "https://www.surveymonkey.com/careers/dept/engineering/",
        "path": "/careers/dept/engineering/"
      }
    ],
    "career_location": [
      {
        "id": 470,
        "slug": "bengaluru",
        "name": "Bengaluru, India",
        "description": "",
        "link": "https://www.surveymonkey.com/careers/office/bengaluru/",
        "path": "/careers/office/bengaluru/"
      },
      {
        "id": 411,
        "slug": "global",
        "name": "Global",
        "description": "",
        "link": "https://www.surveymonkey.com/careers/office/global/",
        "path": "/careers/office/global/"
      }
    ],
    "job_location": "",
    "source": "SurveyMonkey"
  },
  {
    "id": 135007,
    "type": "careers",
    "title": "Senior Software Engineer in Test I &#8211; SurveyMonkey Apply &#038; Wufoo",
    "link": "https://www.surveymonkey.com/careers/6579966-senior-software-engineer-in-test-i-sm-apply-wufoo-team/",
    "path": "/careers/6579966-senior-software-engineer-in-test-i-sm-apply-wufoo-team/",
    "date": "2025-03-10T05:00:53",
    "date_modified": "2025-06-04T10:03:11",
    "excerpt": "",
    "images": {},
    "featured_image_alt": "Senior Software Engineer in Test I &#8211; SurveyMonkey Apply &#038; Wufoo",
    "career_department": [
      {
        "id": 410,
        "slug": "engineering",
        "name": "Engineering",
        "description": "SurveyMonkey products amplify the voices of millions of people around the globe. As an engineering team, we support our large-scale platform and are responsible for that critical feedback data, which allows organizations to better meet the needs of their customers, market, and employees. \r\n\r\nOur team values a passion for engineering, a growth mindset, a love of collaboration, and a general curiosity about how things work. Our goal is to have fun while building products that our customers love. If you want to take your career to the next level and be involved in solving some of the most interesting and biggest challenges in technology today, then come join us!",
        "link": "https://www.surveymonkey.com/careers/dept/engineering/",
        "path": "/careers/dept/engineering/"
      }
    ],
    "career_location": [
      {
        "id": 470,
        "slug": "bengaluru",
        "name": "Bengaluru, India",
        "description": "",
        "link": "https://www.surveymonkey.com/careers/office/bengaluru/",
        "path": "/careers/office/bengaluru/"
      },
      {
        "id": 411,
        "slug": "global",
        "name": "Global",
        "description": "",
        "link": "https://www.surveymonkey.com/careers/office/global/",
        "path": "/careers/office/global/"
      }
    ],
    "job_location": "",
    "source": "SurveyMonkey"
  },
  {
    "id": 135005,
    "type": "careers",
    "title": "Senior Software Engineer in Test II &#8211; SurveyMonkey Apply &#038; Wufoo",
    "link": "https://www.surveymonkey.com/careers/6579729-senior-software-engineer-in-test-ii-sm-apply-wufoo-team/",
    "path": "/careers/6579729-senior-software-engineer-in-test-ii-sm-apply-wufoo-team/",
    "date": "2025-03-10T05:00:51",
    "date_modified": "2025-06-04T10:03:13",
    "excerpt": "",
    "images": {},
    "featured_image_alt": "Senior Software Engineer in Test II &#8211; SurveyMonkey Apply &#038; Wufoo",
    "career_department": [
      {
        "id": 410,
        "slug": "engineering",
        "name": "Engineering",
        "description": "SurveyMonkey products amplify the voices of millions of people around the globe. As an engineering team, we support our large-scale platform and are responsible for that critical feedback data, which allows organizations to better meet the needs of their customers, market, and employees. \r\n\r\nOur team values a passion for engineering, a growth mindset, a love of collaboration, and a general curiosity about how things work. Our goal is to have fun while building products that our customers love. If you want to take your career to the next level and be involved in solving some of the most interesting and biggest challenges in technology today, then come join us!",
        "link": "https://www.surveymonkey.com/careers/dept/engineering/",
        "path": "/careers/dept/engineering/"
      }
    ],
    "career_location": [
      {
        "id": 470,
        "slug": "bengaluru",
        "name": "Bengaluru, India",
        "description": "",
        "link": "https://www.surveymonkey.com/careers/office/bengaluru/",
        "path": "/careers/office/bengaluru/"
      },
      {
        "id": 411,
        "slug": "global",
        "name": "Global",
        "description": "",
        "link": "https://www.surveymonkey.com/careers/office/global/",
        "path": "/careers/office/global/"
      }
    ],
    "job_location": "",
    "source": "SurveyMonkey"
  },
  {
    "id": 133024,
    "type": "careers",
    "title": "Senior Systems Engineer &#8211; DevPlatform Team",
    "link": "https://www.surveymonkey.com/careers/6592721-senior-systems-engineer-devplatform-team/",
    "path": "/careers/6592721-senior-systems-engineer-devplatform-team/",
    "date": "2025-01-31T11:01:14",
    "date_modified": "2025-01-31T11:01:14",
    "excerpt": "",
    "images": {},
    "featured_image_alt": "Senior Systems Engineer &#8211; DevPlatform Team",
    "career_department": [
      {
        "id": 410,
        "slug": "engineering",
        "name": "Engineering",
        "description": "SurveyMonkey products amplify the voices of millions of people around the globe. As an engineering team, we support our large-scale platform and are responsible for that critical feedback data, which allows organizations to better meet the needs of their customers, market, and employees. \r\n\r\nOur team values a passion for engineering, a growth mindset, a love of collaboration, and a general curiosity about how things work. Our goal is to have fun while building products that our customers love. If you want to take your career to the next level and be involved in solving some of the most interesting and biggest challenges in technology today, then come join us!",
        "link": "https://www.surveymonkey.com/careers/dept/engineering/",
        "path": "/careers/dept/engineering/"
      }
    ],
    "career_location": [
      {
        "id": 470,
        "slug": "bengaluru",
        "name": "Bengaluru, India",
        "description": "",
        "link": "https://www.surveymonkey.com/careers/office/bengaluru/",
        "path": "/careers/office/bengaluru/"
      },
      {
        "id": 411,
        "slug": "global",
        "name": "Global",
        "description": "",
        "link": "https://www.surveymonkey.com/careers/office/global/",
        "path": "/careers/office/global/"
      }
    ],
    "job_location": "",
    "source": "SurveyMonkey"
  },
  {
    "id": 131039,
    "type": "careers",
    "title": "Engineering Manager &#8211; SurveyMonkey Apply",
    "link": "https://www.surveymonkey.com/careers/6418326-engineering-manager-sm-apply/",
    "path": "/careers/6418326-engineering-manager-sm-apply/",
    "date": "2025-01-06T17:00:31",
    "date_modified": "2025-01-06T17:00:31",
    "excerpt": "",
    "images": {},
    "featured_image_alt": "Engineering Manager &#8211; SurveyMonkey Apply",
    "career_department": [
      {
        "id": 410,
        "slug": "engineering",
        "name": "Engineering",
        "description": "SurveyMonkey products amplify the voices of millions of people around the globe. As an engineering team, we support our large-scale platform and are responsible for that critical feedback data, which allows organizations to better meet the needs of their customers, market, and employees. \r\n\r\nOur team values a passion for engineering, a growth mindset, a love of collaboration, and a general curiosity about how things work. Our goal is to have fun while building products that our customers love. If you want to take your career to the next level and be involved in solving some of the most interesting and biggest challenges in technology today, then come join us!",
        "link": "https://www.surveymonkey.com/careers/dept/engineering/",
        "path": "/careers/dept/engineering/"
      }
    ],
    "career_location": [
      {
        "id": 470,
        "slug": "bengaluru",
        "name": "Bengaluru, India",
        "description": "",
        "link": "https://www.surveymonkey.com/careers/office/bengaluru/",
        "path": "/careers/office/bengaluru/"
      },
      {
        "id": 411,
        "slug": "global",
        "name": "Global",
        "description": "",
        "link": "https://www.surveymonkey.com/careers/office/global/",
        "path": "/careers/office/global/"
      }
    ],
    "job_location": "",
    "source": "SurveyMonkey"
  }
]